{
"type": "FeatureCollection",
"name": "mini",
"features": [
{ "type": "Feature", "properties": { "OBJECTID": 1, "name": "Primary school", "name_en": null, "amenity": "school", "building": null, "operator_t": null, "capacity_p": null, "addr_full": null, "addr_city": null, "source": null, "osm_id": 4697101607.0, "osm_type": "nodes" }, "geometry": { "type": "Point", "coordinates": [ 4.754967400425244, 7.217336400254737, 0.0 ] } },
{ "type": "Feature", "properties": { "OBJECTID": 2, "name": "Primary school", "name_en": null, "amenity": "school", "building": null, "operator_t": null, "capacity_p": null, "addr_full": null, "addr_city": null, "source": null, "osm_id": 4697101608.0, "osm_type": "nodes" }, "geometry": { "type": "Point", "coordinates": [ 4.774214900397396, 7.221413599957714, 0.0 ] } },
{ "type": "Feature", "properties": { "OBJECTID": 3, "name": "St. Joseph Primary School", "name_en": null, "amenity": "school", "building": null, "operator_t": null, "capacity_p": null, "addr_full": null, "addr_city": null, "source": null, "osm_id": 4247701495.0, "osm_type": "nodes" }, "geometry": { "type": "Point", "coordinates": [ 4.729260199698501, 7.164460899950598, 0.0 ] } },
{ "type": "Feature", "properties": { "OBJECTID": 4, "name": "St. John Primary School", "name_en": null, "amenity": "school", "building": null, "operator_t": null, "capacity_p": null, "addr_full": null, "addr_city": null, "source": null, "osm_id": 4247701497.0, "osm_type": "nodes" }, "geometry": { "type": "Point", "coordinates": [ 4.725110100051097, 7.15913920041379, 0.0 ] } },
{ "type": "Feature", "properties": { "OBJECTID": 5, "name": "C. A. C. Primary School", "name_en": null, "amenity": "school", "building": null, "operator_t": null, "capacity_p": null, "addr_full": null, "addr_city": null, "source": null, "osm_id": 4247715491.0, "osm_type": "nodes" }, "geometry": { "type": "Point", "coordinates": [ 4.723617100448848, 7.164024299781659, 0.0 ] } },
{ "type": "Feature", "properties": { "OBJECTID": 6, "name": null, "name_en": null, "amenity": "school", "building": null, "operator_t": null, "capacity_p": null, "addr_full": null, "addr_city": null, "source": null, "osm_id": 3869917572.0, "osm_type": "nodes" }, "geometry": { "type": "Point", "coordinates": [ 4.344776999658848, 7.877447799576316, 0.0 ] } },
{ "type": "Feature", "properties": { "OBJECTID": 7, "name": "Oke Moyo Baptist Primary School", "name_en": null, "amenity": "school", "building": null, "operator_t": null, "capacity_p": null, "addr_full": null, "addr_city": "Ejigbo", "source": null, "osm_id": 3409200092.0, "osm_type": "nodes" }, "geometry": { "type": "Point", "coordinates": [ 4.320020299597218, 7.896011400206021, 0.0 ] } },
{ "type": "Feature", "properties": { "OBJECTID": 8, "name": null, "name_en": null, "amenity": "school", "building": null, "operator_t": null, "capacity_p": null, "addr_full": null, "addr_city": null, "source": null, "osm_id": 3794573073.0, "osm_type": "nodes" }, "geometry": { "type": "Point", "coordinates": [ 4.340265799726922, 7.829049299785424, 0.0 ] } },
{ "type": "Feature", "properties": { "OBJECTID": 9, "name": "Unity School, Ejigbo", "name_en": null, "amenity": "school", "building": null, "operator_t": null, "capacity_p": null, "addr_full": null, "addr_city": null, "source": null, "osm_id": 6588450085.0, "osm_type": "nodes" }, "geometry": { "type": "Point", "coordinates": [ 4.322379900312171, 7.888510799833568, 0.0 ] } },
{ "type": "Feature", "properties": { "OBJECTID": 10, "name": "Nomadic", "name_en": null, "amenity": "school", "building": null, "operator_t": "government", "capacity_p": null, "addr_full": null, "addr_city": null, "source": null, "osm_id": 9808539371.0, "osm_type": "nodes" }, "geometry": { "type": "Point", "coordinates": [ 4.486098299696835, 7.78466639973459, 0.0 ] } },
{ "type": "Feature", "properties": { "OBJECTID": 11, "name": "St. Andrew Primary School", "name_en": null, "amenity": "school", "building": null, "operator_t": null, "capacity_p": null, "addr_full": null, "addr_city": null, "source": null, "osm_id": 4247703892.0, "osm_type": "nodes" }, "geometry": { "type": "Point", "coordinates": [ 4.724893099936651, 7.161495899915906, 0.0 ] } },
{ "type": "Feature", "properties": { "OBJECTID": 12, "name": "Ansirudeen Primary School", "name_en": null, "amenity": "school", "building": null, "operator_t": null, "capacity_p": null, "addr_full": null, "addr_city": null, "source": null, "osm_id": 4247715492.0, "osm_type": "nodes" }, "geometry": { "type": "Point", "coordinates": [ 4.723181600150781, 7.16794999969278, 0.0 ] } },
{ "type": "Feature", "properties": { "OBJECTID": 13, "name": null, "name_en": null, "amenity": "school", "building": null, "operator_t": null, "capacity_p": null, "addr_full": null, "addr_city": null, "source": null, "osm_id": 9860322395.0, "osm_type": "nodes" }, "geometry": { "type": "Point", "coordinates": [ 4.453477299937504, 6.989283699683028, 0.0 ] } },
{ "type": "Feature", "properties": { "OBJECTID": 14, "name": "Baptist High School, Ejigbo", "name_en": null, "amenity": "school", "building": null, "operator_t": null, "capacity_p": null, "addr_full": null, "addr_city": null, "source": null, "osm_id": 6611244036.0, "osm_type": "nodes" }, "geometry": { "type": "Point", "coordinates": [ 4.319421299853161, 7.896911599990403, 0.0 ] } },
{ "type": "Feature", "properties": { "OBJECTID": 15, "name": "Bowen University", "name_en": null, "amenity": "school", "building": null, "operator_t": null, "capacity_p": null, "addr_full": null, "addr_city": null, "source": null, "osm_id": 8437381317.0, "osm_type": "nodes" }, "geometry": { "type": "Point", "coordinates": [ 4.188672099737687, 7.599188399824868, 0.0 ] } },
{ "type": "Feature", "properties": { "OBJECTID": 16, "name": "Baptist Girls High School", "name_en": null, "amenity": "school", "building": null, "operator_t": null, "capacity_p": null, "addr_full": null, "addr_city": "Osogbo", "source": null, "osm_id": 3358487422.0, "osm_type": "nodes" }, "geometry": { "type": "Point", "coordinates": [ 4.544672499836054, 7.768634799856159, 0.0 ] } },
{ "type": "Feature", "properties": { "OBJECTID": 17, "name": "St. Gabriel Primary School", "name_en": null, "amenity": "school", "building": null, "operator_t": null, "capacity_p": null, "addr_full": null, "addr_city": null, "source": null, "osm_id": 4247703893.0, "osm_type": "nodes" }, "geometry": { "type": "Point", "coordinates": [ 4.72366579963699, 7.165279200274938, 0.0 ] } },
{ "type": "Feature", "properties": { "OBJECTID": 18, "name": "Oke Okanla Baptist Primary School", "name_en": null, "amenity": "school", "building": null, "operator_t": null, "capacity_p": null, "addr_full": null, "addr_city": "Osogbo", "source": null, "osm_id": 3819120357.0, "osm_type": "nodes" }, "geometry": { "type": "Point", "coordinates": [ 4.552619399565685, 7.767481199897531, 0.0 ] } },
{ "type": "Feature", "properties": { "OBJECTID": 19, "name": "Oranmiyan Grammar School", "name_en": null, "amenity": "school", "building": null, "operator_t": null, "capacity_p": null, "addr_full": null, "addr_city": null, "source": null, "osm_id": 5847365478.0, "osm_type": "nodes" }, "geometry": { "type": "Point", "coordinates": [ 4.553075200260309, 7.494075899882944, 0.0 ] } },
{ "type": "Feature", "properties": { "OBJECTID": 20, "name": "St. Peter's Government Elementary School", "name_en": null, "amenity": "school", "building": null, "operator_t": null, "capacity_p": null, "addr_full": null, "addr_city": "Ile-Ife", "source": null, "osm_id": 5847365477.0, "osm_type": "nodes" }, "geometry": { "type": "Point", "coordinates": [ 4.556148000230053, 7.492647799856115, 0.0 ] } },
{ "type": "Feature", "properties": { "OBJECTID": 21, "name": "St. George's RCM Primary School, Ofatedo", "name_en": null, "amenity": "school", "building": null, "operator_t": null, "capacity_p": null, "addr_full": null, "addr_city": null, "source": null, "osm_id": 9817020457.0, "osm_type": "nodes" }, "geometry": { "type": "Point", "coordinates": [ 4.502562399734984, 7.78075099975888, 0.0 ] } },
{ "type": "Feature", "properties": { "OBJECTID": 22, "name": "Islahudeen Nur & Pri School, Ido-Osun", "name_en": null, "amenity": "school", "building": null, "operator_t": "private", "capacity_p": null, "addr_full": null, "addr_city": null, "source": null, "osm_id": 9808539363.0, "osm_type": "nodes" }, "geometry": { "type": "Point", "coordinates": [ 4.487632699589483, 7.779918500038775, 0.0 ] } },
{ "type": "Feature", "properties": { "OBJECTID": 23, "name": "St.Paul Anglican Primary School, Ido-Osun", "name_en": null, "amenity": "school", "building": null, "operator_t": "government", "capacity_p": null, "addr_full": null, "addr_city": null, "source": null, "osm_id": 9808539362.0, "osm_type": "nodes" }, "geometry": { "type": "Point", "coordinates": [ 4.488513799572218, 7.779619399915418, 0.0 ] } },
{ "type": "Feature", "properties": { "OBJECTID": 24, "name": null, "name_en": null, "amenity": "school", "building": null, "operator_t": null, "capacity_p": null, "addr_full": null, "addr_city": "Owode", "source": null, "osm_id": 3885537621.0, "osm_type": "nodes" }, "geometry": { "type": "Point", "coordinates": [ 4.488951700160897, 7.714611100022296, 0.0 ] } },
{ "type": "Feature", "properties": { "OBJECTID": 25, "name": "Great-Elsaadai Schools", "name_en": null, "amenity": "school", "building": null, "operator_t": null, "capacity_p": null, "addr_full": null, "addr_city": null, "source": null, "osm_id": 3932979895.0, "osm_type": "nodes" }, "geometry": { "type": "Point", "coordinates": [ 4.489837599825421, 7.717388399854826, 0.0 ] } },
{ "type": "Feature", "properties": { "OBJECTID": 26, "name": "Ataoja School of Science", "name_en": null, "amenity": "school", "building": null, "operator_t": null, "capacity_p": null, "addr_full": null, "addr_city": "Osogbo", "source": null, "osm_id": 3799233011.0, "osm_type": "nodes" }, "geometry": { "type": "Point", "coordinates": [ 4.516569499782634, 7.748670300094318, 0.0 ] } },
{ "type": "Feature", "properties": { "OBJECTID": 27, "name": "St. Joseph's College, Ondo", "name_en": null, "amenity": "school", "building": null, "operator_t": null, "capacity_p": null, "addr_full": null, "addr_city": null, "source": null, "osm_id": 7956235285.0, "osm_type": "nodes" }, "geometry": { "type": "Point", "coordinates": [ 4.818371500444414, 7.104266300449467, 0.0 ] } },
{ "type": "Feature", "properties": { "OBJECTID": 28, "name": "Redeemers University, Ede", "name_en": null, "amenity": "college", "building": null, "operator_t": null, "capacity_p": null, "addr_full": null, "addr_city": null, "source": null, "osm_id": 7956218500.0, "osm_type": "nodes" }, "geometry": { "type": "Point", "coordinates": [ 4.460088499584629, 7.678163299696564, 0.0 ] } },
{ "type": "Feature", "properties": { "OBJECTID": 29, "name": "Obafemi Awolowo University, Moro Campus", "name_en": null, "amenity": "college", "building": null, "operator_t": null, "capacity_p": null, "addr_full": null, "addr_city": null, "source": null, "osm_id": 7956225498.0, "osm_type": "nodes" }, "geometry": { "type": "Point", "coordinates": [ 4.470377199748043, 7.541927700003384, 0.0 ] } },
{ "type": "Feature", "properties": { "OBJECTID": 30, "name": "Ido-Osun High School, Ido-Osun", "name_en": null, "amenity": "school", "building": null, "operator_t": "government", "capacity_p": null, "addr_full": null, "addr_city": null, "source": null, "osm_id": 9808539360.0, "osm_type": "nodes" }, "geometry": { "type": "Point", "coordinates": [ 4.49043260028435, 7.783639400038339, 0.0 ] } },
{ "type": "Feature", "properties": { "OBJECTID": 31, "name": "Islahudeen Model College, Ido-Osun", "name_en": null, "amenity": "school", "building": null, "operator_t": "private", "capacity_p": null, "addr_full": null, "addr_city": null, "source": null, "osm_id": 9808539361.0, "osm_type": "nodes" }, "geometry": { "type": "Point", "coordinates": [ 4.490572100422128, 7.781502699889757, 0.0 ] } },
{ "type": "Feature", "properties": { "OBJECTID": 32, "name": "Young Tajudeen Primary School, Ido-Osun", "name_en": null, "amenity": "school", "building": null, "operator_t": "government", "capacity_p": null, "addr_full": null, "addr_city": null, "source": null, "osm_id": 9808539369.0, "osm_type": "nodes" }, "geometry": { "type": "Point", "coordinates": [ 4.485512900400067, 7.783578800121575, 0.0 ] } },
{ "type": "Feature", "properties": { "OBJECTID": 33, "name": "Muslim Model College, Ido-Osun", "name_en": null, "amenity": "school", "building": null, "operator_t": "government", "capacity_p": null, "addr_full": null, "addr_city": null, "source": null, "osm_id": 9808539370.0, "osm_type": "nodes" }, "geometry": { "type": "Point", "coordinates": [ 4.486777199708058, 7.783365300168498, 0.0 ] } },
{ "type": "Feature", "properties": { "OBJECTID": 34, "name": "Idi Ape Baptist School", "name_en": null, "amenity": "school", "building": null, "operator_t": "private", "capacity_p": null, "addr_full": null, "addr_city": null, "source": "local knowledge", "osm_id": 11969222056.0, "osm_type": "nodes" }, "geometry": { "type": "Point", "coordinates": [ 4.315523200135601, 7.898151599616654, 0.0 ] } },
{ "type": "Feature", "properties": { "OBJECTID": 35, "name": "Regina Mundi Girls Secondary School", "name_en": null, "amenity": "school", "building": null, "operator_t": null, "capacity_p": null, "addr_full": null, "addr_city": null, "source": null, "osm_id": 11944898086.0, "osm_type": "nodes" }, "geometry": { "type": "Point", "coordinates": [ 4.170548700162442, 7.639742199742784, 0.0 ] } },
{ "type": "Feature", "properties": { "OBJECTID": 36, "name": "D.C School", "name_en": null, "amenity": "school", "building": null, "operator_t": null, "capacity_p": null, "addr_full": null, "addr_city": null, "source": null, "osm_id": 11944729344.0, "osm_type": "nodes" }, "geometry": { "type": "Point", "coordinates": [ 4.177550300006374, 7.644909900271728, 0.0 ] } },
{ "type": "Feature", "properties": { "OBJECTID": 37, "name": "Aipate Baptist Church Grammar School", "name_en": null, "amenity": "school", "building": null, "operator_t": null, "capacity_p": null, "addr_full": null, "addr_city": null, "source": null, "osm_id": 11940681532.0, "osm_type": "nodes" }, "geometry": { "type": "Point", "coordinates": [ 4.167499400377096, 7.629732099656735, 0.0 ] } },
{ "type": "Feature", "properties": { "OBJECTID": 38, "name": "Federal college of Education", "name_en": null, "amenity": "school", "building": null, "operator_t": null, "capacity_p": null, "addr_full": null, "addr_city": null, "source": null, "osm_id": 11940703814.0, "osm_type": "nodes" }, "geometry": { "type": "Point", "coordinates": [ 4.171359500140852, 7.645201300399719, 0.0 ] } },
{ "type": "Feature", "properties": { "OBJECTID": 39, "name": "Baptist High school", "name_en": null, "amenity": "school", "building": null, "operator_t": null, "capacity_p": null, "addr_full": null, "addr_city": null, "source": null, "osm_id": 11944678276.0, "osm_type": "nodes" }, "geometry": { "type": "Point", "coordinates": [ 4.163907400206426, 7.630300699617635, 0.0 ] } },
{ "type": "Feature", "properties": { "OBJECTID": 40, "name": "The wings school", "name_en": null, "amenity": "college", "building": null, "operator_t": null, "capacity_p": null, "addr_full": null, "addr_city": null, "source": null, "osm_id": 11944678280.0, "osm_type": "nodes" }, "geometry": { "type": "Point", "coordinates": [ 4.167041999788523, 7.641810099956217, 0.0 ] } },
{ "type": "Feature", "properties": { "OBJECTID": 41, "name": "Vico Hope International College", "name_en": null, "amenity": "college", "building": null, "operator_t": null, "capacity_p": null, "addr_full": null, "addr_city": null, "source": null, "osm_id": 11944678286.0, "osm_type": "nodes" }, "geometry": { "type": "Point", "coordinates": [ 4.174241099747007, 7.651276200136579, 0.0 ] } },
{ "type": "Feature", "properties": { "OBJECTID": 42, "name": "Newton College", "name_en": null, "amenity": "college", "building": null, "operator_t": null, "capacity_p": null, "addr_full": null, "addr_city": null, "source": null, "osm_id": 11944678279.0, "osm_type": "nodes" }, "geometry": { "type": "Point", "coordinates": [ 4.161187299953951, 7.649732700004165, 0.0 ] } },
{ "type": "Feature", "properties": { "OBJECTID": 43, "name": "National Open University", "name_en": null, "amenity": "university", "building": null, "operator_t": null, "capacity_p": null, "addr_full": null, "addr_city": null, "source": null, "osm_id": 11944678278.0, "osm_type": "nodes" }, "geometry": { "type": "Point", "coordinates": [ 4.165656899946043, 7.645580399715698, 0.0 ] } },
{ "type": "Feature", "properties": { "OBJECTID": 44, "name": "Excellent Model Nur & Pry. School", "name_en": null, "amenity": "school", "building": null, "operator_t": null, "capacity_p": null, "addr_full": null, "addr_city": null, "source": null, "osm_id": 11940706223.0, "osm_type": "nodes" }, "geometry": { "type": "Point", "coordinates": [ 4.176507099922787, 7.630835199984517, 0.0 ] } },
{ "type": "Feature", "properties": { "OBJECTID": 45, "name": "Faith Foundation Group of Schools", "name_en": null, "amenity": "school", "building": null, "operator_t": null, "capacity_p": null, "addr_full": null, "addr_city": null, "source": null, "osm_id": 11737939482.0, "osm_type": "nodes" }, "geometry": { "type": "Point", "coordinates": [ 4.122160899605888, 7.822005099955447, 0.0 ] } },
{ "type": "Feature", "properties": { "OBJECTID": 46, "name": "GOF Secondary School", "name_en": null, "amenity": "school", "building": null, "operator_t": null, "capacity_p": null, "addr_full": null, "addr_city": null, "source": null, "osm_id": 11737904226.0, "osm_type": "nodes" }, "geometry": { "type": "Point", "coordinates": [ 4.12501480009297, 7.824925400087182, 0.0 ] } },
{ "type": "Feature", "properties": { "OBJECTID": 47, "name": "AFRIGIST (Ex. RECTAS) O.A.U Campus Ile-Ife", "name_en": null, "amenity": "university", "building": null, "operator_t": "public", "capacity_p": null, "addr_full": null, "addr_city": "Ile-Ife", "source": null, "osm_id": 5688128327.0, "osm_type": "nodes" }, "geometry": { "type": "Point", "coordinates": [ 4.524461100199687, 7.505538100203182, 0.0 ] } }
]
}
